[
    {
        "name": "Gorecki to Sexton",
        "category": "CSB",
        "city": "Saint Joseph",
        "state": "Minnesota",
        "id": 1,
        "park": "Joshua Tree National Park",
        "coordinates": {
            "longitude": -45.5605,
            "latitude": -94.3221
        },
        "imageName": "turtlerock"
    },
    {
        "name": "Sexton to Gorecki",
        "category": "SJU",
        "city": "Collegeville",
        "state": "Minnesota",
        "id": 2,
        "park": "Lake Clark National Park and Preserve",
        "coordinates": {
            "longitude": -152.665167,
            "latitude": 59.980167
        },
        "imageName": "silversalmoncreek"
    },
    {
        "name": "CSB East to Gorecki/Sexton",
        "category": "CSB",
        "city": "Saint Joseph",
        "state": "Minnesota",
        "id": 3,
        "park": "Klondike Gold Rush National Historical Park",
        "coordinates": {
            "longitude": -135.334571,
            "latitude": 59.560551
        },
        "imageName": "chilkoottrail"
    },
    {
        "name": "Gorecki to Crossroads",
        "category": "CSB",
        "city": "Saint Joseph",
        "state": "MN",
        "id": 6,
        "park": "Glacier National Park",
        "coordinates": {
            "longitude": -113.536248,
            "latitude": 48.69423
        },
        "imageName": "stmarylake"
    },
    {
        "name": "Leave Crossroads",
        "category": "OC",
        "city": "Saint Cloud",
        "state": "Minnesota",
        "id": 7,
        "park": "Lake Clark National Park and Preserve",
        "coordinates": {
            "longitude": -153.849883,
            "latitude": 60.641684
        },
        "imageName": "twinlake"
    },
    {
        "name": "Leave Cash Wise",
        "category": "OC",
        "city": "Saint Cloud",
        "state": "Minnesota",
        "id": 8,
        "park": "Glacier National Park",
        "coordinates": {
            "longitude": -113.934831,
            "latitude": 48.56002
        },
        "imageName": "lakemcdonald"
    }
]
